{"type":"FeatureCollection", "features":[
    {"type":"Feature","geometry":{"type":"Point","coordinates":[-3.08,51.78,0]},"properties":{"name":"Blaenavon Industrial Landscape","status":"Unvisited","description":"<br>Source: Wikipedia article <a href=\"https://en.wikipedia.org/wiki/List_of_World_Heritage_Sites_in_the_United_Kingdom#cite_ref-list_11-1\">List of World Heritage Sites in the United Kingdom</a>"}},
    {"type":"Feature","geometry":{"type":"Point","coordinates":[-1.361,51.841,0]},"properties":{"name":"Blenheim Palace","status":"Unvisited","description":"<br>Source: Wikipedia article <a href=\"https://en.wikipedia.org/wiki/List_of_World_Heritage_Sites_in_the_United_Kingdom#cite_ref-Blaenavon_17-3\">List of World Heritage Sites in the United Kingdom</a>"}},
    {"type":"Feature","geometry":{"type":"Point","coordinates":[1.08,51.28,0]},"properties":{"name":"Canterbury Cathedral, St Augustine's Abbey, and St Martin's Church","status":"Unvisited","description":"<br>Source: Wikipedia article <a href=\"https://en.wikipedia.org/wiki/List_of_World_Heritage_Sites_in_the_United_Kingdom#cite_ref-Blenheim_18-3\">List of World Heritage Sites in the United Kingdom</a>"}},
    {"type":"Feature","geometry":{"type":"Point","coordinates":[-4.276,53.139,0]},"properties":{"name":"Castles and Town Walls of King Edward in Gwynedd","status":"Previous","description":"<br>Source: Wikipedia article <a href=\"https://en.wikipedia.org/wiki/List_of_World_Heritage_Sites_in_the_United_Kingdom#cite_ref-21\">List of World Heritage Sites in the United Kingdom</a>"}},
    {"type":"Feature","geometry":{"type":"Point","coordinates":[-2.36,51.38,0]},"properties":{"name":"City of Bath","status":"Nicky","description":"<br>Source: Wikipedia article <a href=\"https://en.wikipedia.org/wiki/List_of_World_Heritage_Sites_in_the_United_Kingdom#cite_ref-23\">List of World Heritage Sites in the United Kingdom</a>"}},
    {"type":"Feature","geometry":{"type":"Point","coordinates":[-5.38,50.13,0]},"properties":{"name":"Cornwall and West Devon Mining Landscape","status":"Unvisited","description":"<br>Source: Wikipedia article <a href=\"https://en.wikipedia.org/wiki/List_of_World_Heritage_Sites_in_the_United_Kingdom#cite_ref-Bath_24-3\">List of World Heritage Sites in the United Kingdom</a>"}},
    {"type":"Feature","geometry":{"type":"Point","coordinates":[-1.499,53.02,0]},"properties":{"name":"Derwent Valley Mills","status":"Visited","description":"<br>Source: Wikipedia article <a href=\"https://en.wikipedia.org/wiki/List_of_World_Heritage_Sites_in_the_United_Kingdom#cite_ref-mining_landscape_25-3\">List of World Heritage Sites in the United Kingdom</a>"}},
    {"type":"Feature","geometry":{"type":"Point","coordinates":[-2.98,50.7,0]},"properties":{"name":"Dorset and East Devon Coast","status":"Nicky","description":"<br>Source: Wikipedia article <a href=\"https://en.wikipedia.org/wiki/List_of_World_Heritage_Sites_in_the_United_Kingdom#cite_ref-27\">List of World Heritage Sites in the United Kingdom</a>"}},
    {"type":"Feature","geometry":{"type":"Point","coordinates":[-1.575,54.774,0]},"properties":{"name":"Durham Castle and Cathedral","status":"Visited","description":"<br>Source: Wikipedia article <a href=\"https://en.wikipedia.org/wiki/List_of_World_Heritage_Sites_in_the_United_Kingdom#cite_ref-Jurassic_28-2\">List of World Heritage Sites in the United Kingdom</a>"}},
    {"type":"Feature","geometry":{"type":"Point","coordinates":[-3.08222222222222,54.4738888888889,0]},"properties":{"name":"The English Lake District","status":"Previous","description":"<br>Source: Wikipedia article <a href=\"https://en.wikipedia.org/wiki/List_of_World_Heritage_Sites_in_the_United_Kingdom#cite_ref-Durham_29-3\">List of World Heritage Sites in the United Kingdom</a>"}},
    {"type":"Feature","geometry":{"type":"Point","coordinates":[-3.388726,56.000421,0]},"properties":{"name":"Forth Bridge","status":"Visited","description":"<br>Source: Wikipedia article <a href=\"https://en.wikipedia.org/wiki/List_of_World_Heritage_Sites_in_the_United_Kingdom#cite_ref-Lake_30-2\">List of World Heritage Sites in the United Kingdom</a>"}},
    {"type":"Feature","geometry":{"type":"Point","coordinates":[-2.6,54.99,0]},"properties":{"name":"Frontiers of the Roman Empire","status":"Visited","description":"<br>Source: Wikipedia article <a href=\"https://en.wikipedia.org/wiki/List_of_World_Heritage_Sites_in_the_United_Kingdom#cite_ref-Forth_31-1\">List of World Heritage Sites in the United Kingdom</a>"}},
    {"type":"Feature","geometry":{"type":"Point","coordinates":[-6.511,55.24,0]},"properties":{"name":"Giant's Causeway and Causeway Coast","status":"Unvisited","description":"<br>Source: Wikipedia article <a href=\"https://en.wikipedia.org/wiki/List_of_World_Heritage_Sites_in_the_United_Kingdom#cite_ref-33\">List of World Heritage Sites in the United Kingdom</a>"}},
    {"type":"Feature","geometry":{"type":"Point","coordinates":[-3.188,58.996,0]},"properties":{"name":"Heart of Historic Orkney","status":"Visited","description":"<br>Source: Wikipedia article <a href=\"https://en.wikipedia.org/wiki/List_of_World_Heritage_Sites_in_the_United_Kingdom#cite_ref-Spa_38-1\">List of World Heritage Sites in the United Kingdom</a>"}},
    {"type":"Feature","geometry":{"type":"Point","coordinates":[-2.486,52.626,0]},"properties":{"name":"Ironbridge Gorge","status":"Visited","description":"<br>Source: Wikipedia article <a href=\"https://en.wikipedia.org/wiki/List_of_World_Heritage_Sites_in_the_United_Kingdom#cite_ref-St_George_41-3\">List of World Heritage Sites in the United Kingdom</a>"}},
    {"type":"Feature","geometry":{"type":"Point","coordinates":[-2.31166666666667,53.2416666666667,0]},"properties":{"name":"Jodrell Bank Observatory","status":"Visited","description":"<br>Source: Wikipedia article <a href=\"https://en.wikipedia.org/wiki/List_of_World_Heritage_Sites_in_the_United_Kingdom#cite_ref-Ironbridge_42-3\">List of World Heritage Sites in the United Kingdom</a>"}},
    {"type":"Feature","geometry":{"type":"Point","coordinates":[0,51.4791,0]},"properties":{"name":"Maritime Greenwich","status":"Previous","description":"<br>Source: Wikipedia article <a href=\"https://en.wikipedia.org/wiki/List_of_World_Heritage_Sites_in_the_United_Kingdom#cite_ref-44\">List of World Heritage Sites in the United Kingdom</a>"}},
    {"type":"Feature","geometry":{"type":"Point","coordinates":[-3.78,55.66,0]},"properties":{"name":"New Lanark","status":"Visited","description":"<br>Source: Wikipedia article <a href=\"https://en.wikipedia.org/wiki/List_of_World_Heritage_Sites_in_the_United_Kingdom#cite_ref-Greenwich_45-3\">List of World Heritage Sites in the United Kingdom</a>"}},
    {"type":"Feature","geometry":{"type":"Point","coordinates":[-3.191,55.947,0]},"properties":{"name":"Old and New Town of Edinburgh","status":"Previous","description":"<br>Source: Wikipedia article <a href=\"https://en.wikipedia.org/wiki/List_of_World_Heritage_Sites_in_the_United_Kingdom#cite_ref-New_Lanark_46-3\">List of World Heritage Sites in the United Kingdom</a>"}},
    {"type":"Feature","geometry":{"type":"Point","coordinates":[-0.1286,51.4997,0]},"properties":{"name":"Westminster Palace, Westminster Abbey and Saint Margaret's Church","status":"London Saturday","description":"<br>Source: Wikipedia article <a href=\"https://en.wikipedia.org/wiki/List_of_World_Heritage_Sites_in_the_United_Kingdom#cite_ref-Edinburgh_47-3\">List of World Heritage Sites in the United Kingdom</a>"}},
    {"type":"Feature","geometry":{"type":"Point","coordinates":[-3.087,52.97,0]},"properties":{"name":"Pontcysyllte Aqueduct and Canal","status":"Visited","description":"<br>Source: Wikipedia article <a href=\"https://en.wikipedia.org/wiki/List_of_World_Heritage_Sites_in_the_United_Kingdom#cite_ref-50\">List of World Heritage Sites in the United Kingdom</a>"}},
    {"type":"Feature","geometry":{"type":"Point","coordinates":[-0.295,51.474,0]},"properties":{"name":"Royal Botanical Gardens, Kew","status":"London Sunday","description":"<br>Source: Wikipedia article <a href=\"https://en.wikipedia.org/wiki/List_of_World_Heritage_Sites_in_the_United_Kingdom#cite_ref-52\">List of World Heritage Sites in the United Kingdom</a>"}},
    {"type":"Feature","geometry":{"type":"Point","coordinates":[-8.583,57.816,0]},"properties":{"name":"St Kilda","status":"Visited","description":"<br>Source: Wikipedia article <a href=\"https://en.wikipedia.org/wiki/List_of_World_Heritage_Sites_in_the_United_Kingdom#cite_ref-Kew_53-3\">List of World Heritage Sites in the United Kingdom</a>"}},
    {"type":"Feature","geometry":{"type":"Point","coordinates":[-1.79,53.837,0]},"properties":{"name":"Saltaire","status":"Visited","description":"<br>Source: Wikipedia article <a href=\"https://en.wikipedia.org/wiki/List_of_World_Heritage_Sites_in_the_United_Kingdom#cite_ref-55\">List of World Heritage Sites in the United Kingdom</a>"}},
    {"type":"Feature","geometry":{"type":"Point","coordinates":[-1.8252,51.1788,0]},"properties":{"name":"Stonehenge, Avebury and Associated Sites","status":"Visited","description":"<br>Source: Wikipedia article <a href=\"https://en.wikipedia.org/wiki/List_of_World_Heritage_Sites_in_the_United_Kingdom#cite_ref-58\">List of World Heritage Sites in the United Kingdom</a>"}},
    {"type":"Feature","geometry":{"type":"Point","coordinates":[-1.573,54.116,0]},"properties":{"name":"Studley Royal Park including the Ruins of Fountains Abbey","status":"Unvisited","description":"<br>Source: Wikipedia article <a href=\"https://en.wikipedia.org/wiki/List_of_World_Heritage_Sites_in_the_United_Kingdom#cite_ref-Avebury_59-3\">List of World Heritage Sites in the United Kingdom</a>"}},
    {"type":"Feature","geometry":{"type":"Point","coordinates":[-0.0761,51.508,0]},"properties":{"name":"Tower of London","status":"London Saturday","description":"<br>Source: Wikipedia article <a href=\"https://en.wikipedia.org/wiki/List_of_World_Heritage_Sites_in_the_United_Kingdom#cite_ref-Studley_60-3\">List of World Heritage Sites in the United Kingdom</a>"}},
    {"type":"Feature","geometry":{"type":"Point","coordinates":[0.894444444444444,51.6630555555556,0]},"properties":{"name":"Chatham Dockyard and its Defences","status":"Unvisited","description":"<br>Source: Wikipedia article <a href=\"https://en.wikipedia.org/wiki/List_of_World_Heritage_Sites_in_the_United_Kingdom#cite_ref-UKTentativeList19Jan2006_66-0\">List of World Heritage Sites in the United Kingdom</a>"}}
    ]}